<?xml version="1.0"?><scenario><users><user name="User1" quota="0.5"></user><user name="User2" quota="0.3"></user><user name="User3" quota="0.2"></user></users><satellites><satellite name="SAT1"><orbit nOrbitsPerDay="14.576923076923077" excentricity="0.0012711117737645849" inclination="1.7136566234810915" perigeeArgument="3.1392178887963595" rightAscension="1.0674708761139169" meanAnomaly="3.1415971920701042" t0="1.3664829999998957E8"></orbit></satellite><satellite name="SAT2"><orbit nOrbitsPerDay="14.576923076923077" excentricity="0.0012711117737645849" inclination="1.7136566234810915" perigeeArgument="3.1392178887963595" rightAscension="-2.0741217807612964" meanAnomaly="4.538480311287607E-6" t0="1.3664829999998957E8"></orbit></satellite></satellites><stations><station name="Aussaguel" longitude="0.02603934281239318" latitude="0.7578898351312933" elevation="220.0"></station><station name="Inuvik" longitude="-2.333883364587684" latitude="1.1929276956013133" elevation="15.0"></station><station name="Kerguelen" longitude="1.2100949480494017" latitude="-0.8610290976505359" elevation="10.0"></station><station name="Kourou" longitude="-0.9189013067645813" latitude="0.09007838195015179" elevation="3.0"></station><station name="Hartebeesthoek" longitude="0.4900642132759523" latitude="-0.447497572074535" elevation="1289.98"></station><station name="Kiruna" longitude="0.35299284121585317" latitude="1.1843028602143746" elevation="579.0"></station></stations></scenario>